name,lat,lon
โรงเรียนสตรีนครสวรรค์,15.7047,100.1372
เซ็นทรัลนครสวรรค์,15.6985,100.1224
บขส.นครสวรรค์,15.6938,100.1118
โรงพยาบาลสวรรค์ประชารักษ์,15.7040,100.1195
ศาลากลางจังหวัดนครสวรรค์,15.6909,100.1177
มหาวิทยาลัยราชภัฏนครสวรรค์,15.6788,100.1085